City_ID,City,Country,Max Temp,Current Description,Lat,Lng,Hotel Name
0,Salalah,OM,77.09,light intensity drizzle,17.0151,54.0924,
1,Arraial Do Cabo,BR,73.26,light rain,-22.9661,-42.0278,
5,Primorsk,UA,87.24,broken clouds,46.7348,36.3443,
6,Sovetskiy,RU,66.99,broken clouds,61.3614,63.5842,
8,Rikitea,PF,73.11,light rain,-23.1203,-134.9692,
9,Cidreira,BR,62.02,broken clouds,-30.1811,-50.2056,
10,Pedernales,DO,87.42,clear sky,18.0384,-71.744,
11,Makakilo City,US,77.32,clear sky,21.3469,-158.0858,
12,Albany,US,75.67,broken clouds,42.6001,-73.9662,
13,Hamilton,US,81.25,overcast clouds,39.1834,-84.5333,
14,Straumen,NO,73.4,overcast clouds,63.8709,11.2999,
15,Avarua,CK,69.85,clear sky,-21.2078,-159.775,
18,Karachi,PK,82.22,drizzle,24.9056,67.0822,
19,Karema,TZ,73.94,few clouds,-6.8205,30.4389,
20,Hithadhoo,MV,82.24,broken clouds,-0.6,73.0833,
22,Roma,US,72.95,overcast clouds,43.2128,-75.4557,
25,Bezenchuk,RU,75.04,broken clouds,52.982,49.4333,
27,Saint Anthony,US,82.92,few clouds,45.0205,-93.218,
31,Skhisma,GR,83.84,clear sky,35.2667,25.7167,
33,Komsomolskiy,UZ,84.92,scattered clouds,40.4272,71.7189,
34,Namatanai,PG,78.26,light rain,-3.6667,152.4333,
35,Serov,RU,63.82,light rain,59.6033,60.5787,
36,Tiznit,MA,78.51,clear sky,29.5833,-9.5,
37,Praia Da Vitoria,PT,77.25,few clouds,38.7333,-27.0667,
43,Saint-Philippe,RE,67.59,broken clouds,-21.3585,55.7679,
44,Mwingi,KE,68.83,overcast clouds,-0.9344,38.0601,
46,Vaini,TO,77.16,scattered clouds,-21.2,-175.2,
47,Ponta Do Sol,PT,77.13,scattered clouds,32.6667,-17.1,
48,Gat,IL,83.8,clear sky,31.61,34.7642,
50,Laguna,US,74.95,clear sky,38.421,-121.4238,
51,Oktyabrskoye,RU,75.34,light rain,43.0645,44.7417,
52,Gushikawa,JP,83.43,haze,26.3544,127.8686,
53,Georgetown,MY,82.89,few clouds,5.4112,100.3354,
56,Kimbe,PG,74.34,overcast clouds,-5.5502,150.1429,
57,Santa Rosalia,MX,86.92,overcast clouds,27.3167,-112.2833,
58,Hofn,IS,62.62,haze,64.2539,-15.2082,
60,Bathsheba,BB,88.41,few clouds,13.2167,-59.5167,
61,Salisbury,GB,89.8,clear sky,51.0693,-1.7957,
64,Barkhan,PK,86.49,scattered clouds,29.8977,69.5256,
66,Poum,NC,69.57,clear sky,-20.2333,164.0167,
68,Puerto Escondido,MX,85.03,broken clouds,15.85,-97.0667,
70,Kavaratti,IN,81.72,broken clouds,10.5669,72.642,
71,Port Alfred,ZA,62.44,broken clouds,-33.5906,26.891,
72,Avera,US,83.55,overcast clouds,33.194,-82.5271,
73,Santa Cruz,BO,68.05,clear sky,-17.8,-63.1667,
79,Flin Flon,CA,68.2,clear sky,54.7682,-101.865,
82,Ziyang,CN,76.42,overcast clouds,29.2497,117.8547,
83,Jamestown,US,78.03,broken clouds,42.097,-79.2353,
84,Hukuntsi,BW,70.68,clear sky,-24.0,21.75,
85,Victoria,HK,81.32,overcast clouds,22.2855,114.1577,
88,Kuah,MY,80.58,few clouds,6.3265,99.8432,
89,Puerto Ayora,EC,78.76,overcast clouds,-0.7393,-90.3518,
90,Rincon,US,88.95,overcast clouds,32.296,-81.2354,
91,Camacha,PT,72.82,few clouds,33.0833,-16.3333,
92,Thompson,CA,68.92,clear sky,55.7435,-97.8558,
94,Verin,ES,87.57,light rain,41.9415,-7.4381,
97,Catuday,PH,78.01,light rain,16.2923,119.8062,
99,Hilo,US,83.28,light rain,19.7297,-155.09,
101,Yokadouma,CM,75.78,light rain,3.5167,15.05,
102,Vila Velha,BR,85.95,clear sky,-20.3297,-40.2925,
105,Hasaki,JP,79.29,overcast clouds,35.7333,140.8333,
108,Fortuna,US,73.92,clear sky,40.5982,-124.1573,
109,Abu Samrah,SY,80.2,clear sky,35.3029,37.1841,
110,Lasa,IT,77.88,overcast clouds,46.6166,10.7002,
111,Worland,US,87.67,clear sky,44.0169,-107.9554,
112,Mahanoro,MG,66.78,light rain,-19.9,48.8,
113,Kanata,CA,76.62,few clouds,45.3159,-75.8985,
115,Hovd,MN,70.23,overcast clouds,48.0056,91.6419,
116,Mahebourg,MU,70.25,broken clouds,-20.4081,57.7,
119,Kapaa,US,77.11,light rain,22.0752,-159.319,
121,Atuona,PF,77.56,scattered clouds,-9.8,-139.0333,
122,Isangel,VU,69.53,broken clouds,-19.55,169.2667,
123,Los Llanos De Aridane,ES,73.15,broken clouds,28.6585,-17.9182,
124,Butaritari,KI,81.01,light rain,3.0707,172.7902,
126,Carballo,ES,83.62,broken clouds,43.213,-8.691,
127,Katobu,ID,73.17,overcast clouds,-4.9408,122.5276,
129,Faanui,PF,75.52,light rain,-16.4833,-151.75,
130,Asfi,MA,73.0,clear sky,32.2994,-9.2372,
134,Peace River,CA,70.32,clear sky,56.2501,-117.286,
139,Kasempa,ZM,68.14,clear sky,-13.4584,25.8338,
140,Ekibastuz,KZ,61.75,heavy intensity rain,51.6667,75.3667,
141,Buala,SB,78.22,light rain,-8.145,159.5921,
143,Faya,SA,69.91,overcast clouds,18.3851,42.4509,
145,Upington,ZA,75.58,clear sky,-28.4478,21.2561,
146,Pacific Grove,US,70.34,clear sky,36.6177,-121.9166,
147,Lompoc,US,76.84,mist,34.6391,-120.4579,
148,Nampula,MZ,75.15,scattered clouds,-15.1165,39.2666,
149,Galesong,ID,77.02,overcast clouds,-5.3166,119.3661,
150,Jaciara,BR,71.26,overcast clouds,-15.9653,-54.9683,
151,Bestobe,KZ,65.93,overcast clouds,52.4994,73.0975,
152,Zhanaozen,KZ,87.67,clear sky,43.3,52.8,
153,Road Town,VG,89.69,few clouds,18.4167,-64.6167,
154,Tura,IN,74.89,scattered clouds,25.5198,90.2201,
155,Sayyan,YE,66.31,overcast clouds,15.1718,44.3244,
156,Katsuura,JP,80.47,overcast clouds,35.1333,140.3,
158,Eyl,SO,77.77,overcast clouds,7.9803,49.8164,
160,Summerside,CA,64.47,overcast clouds,46.3959,-63.7876,
161,Port Blair,IN,81.16,overcast clouds,11.6667,92.75,
165,Alofi,NU,64.29,few clouds,-19.0595,-169.9187,
167,Green River,US,83.19,clear sky,41.5286,-109.4662,
168,Lagunas,PE,80.08,broken clouds,-5.2269,-75.6753,
169,Andros Town,BS,87.76,few clouds,24.7,-77.7667,
172,Soe,ID,64.35,broken clouds,-9.8607,124.284,
173,Nikolskoye,RU,69.69,clear sky,59.7035,30.7861,
177,Pingliang,CN,74.43,broken clouds,35.5392,106.6861,
178,Kavieng,PG,79.18,overcast clouds,-2.5744,150.7967,
179,Kahului,US,80.83,clear sky,20.8947,-156.47,
181,At-Bashi,KG,60.17,scattered clouds,41.1702,75.8106,
183,Cockburn Town,TC,81.5,clear sky,21.4612,-71.1419,
185,Torbay,CA,60.58,overcast clouds,47.6666,-52.7314,
186,Rio Grande,BR,64.51,broken clouds,-32.035,-52.0986,
187,Shache,CN,86.72,overcast clouds,38.4167,77.2406,
192,Baft,IR,82.24,broken clouds,29.234,56.6057,
193,Pisco,PE,62.02,mist,-13.7,-76.2167,
194,Sao Filipe,CV,78.98,broken clouds,14.8961,-24.4956,
195,Pueblo Nuevo Solistahuacan,MX,71.01,broken clouds,17.1,-92.8833,
196,Langenburg,DE,83.68,clear sky,49.2544,9.8458,
199,Viedma,AR,60.75,broken clouds,-40.8135,-62.9967,
200,Monte Escobedo,MX,67.93,scattered clouds,22.3,-103.5833,
202,Namwala,ZM,72.45,clear sky,-15.7504,26.4384,
203,Ucluelet,CA,62.1,overcast clouds,48.9329,-125.5528,
204,Bethel,US,83.89,scattered clouds,41.3712,-73.414,
205,Tecoanapa,MX,84.52,overcast clouds,16.5167,-98.75,
206,Milazzo,IT,85.26,broken clouds,38.2212,15.2383,
208,Taltal,CL,64.04,few clouds,-25.4,-70.4833,
209,Mae Sai,TH,72.09,light rain,20.4335,99.8762,
210,General Mamerto Natividad,PH,75.63,overcast clouds,15.6025,121.0515,
212,Vienna,AT,83.7,clear sky,48.2085,16.3721,
215,Vyartsilya,RU,68.61,scattered clouds,62.1764,30.693,
218,Vilhena,BR,73.62,clear sky,-12.7406,-60.1458,
219,Cardston,CA,83.84,overcast clouds,49.2,-113.3019,
222,Pinotepa Nacional,MX,88.48,overcast clouds,16.3167,-98.0167,
223,Chipinge,ZW,61.21,few clouds,-20.1883,32.6236,
225,Bambous Virieux,MU,70.21,broken clouds,-20.3428,57.7575,
226,Louga,RU,65.14,few clouds,58.7372,29.8453,
227,Hirara,JP,84.7,clear sky,24.8,125.2833,
228,Skelleftea,SE,73.0,overcast clouds,64.7507,20.9528,
229,Chadan,RU,60.58,broken clouds,51.2833,91.5833,
231,Pershotravneve,UA,65.88,broken clouds,51.3929,28.8684,
232,Nemuro,JP,66.06,overcast clouds,43.3236,145.575,
233,Susanville,US,75.9,clear sky,40.4163,-120.653,
234,Razdolnoye,RU,64.81,light rain,43.55,131.9167,
235,Balabac,PH,80.96,overcast clouds,7.9868,117.0645,
237,Pozo Colorado,PY,68.43,scattered clouds,-23.4923,-58.7972,
238,Progreso,MX,87.12,few clouds,21.2833,-89.6667,
239,Tomigusuku,JP,83.97,haze,26.185,127.675,
244,Szczecin,PL,78.3,scattered clouds,53.4289,14.553,
247,Beloha,MG,71.94,scattered clouds,-25.1667,45.05,
249,Peterborough,GB,87.57,few clouds,52.5736,-0.2478,
250,Gidole,ET,61.54,overcast clouds,5.65,37.3667,
251,Vaitape,PF,75.45,light rain,-16.5167,-151.75,
252,Tolstoy-Yurt,RU,82.72,clear sky,43.4444,45.7722,
253,Bowen,AU,67.15,broken clouds,-20.0167,148.2333,
254,Garowe,SO,84.43,overcast clouds,8.4054,48.4845,
256,Yuli,NG,81.34,light rain,9.6989,10.2744,
257,Erzin,TR,77.54,broken clouds,36.9559,36.2,
259,Canandaigua,US,77.47,broken clouds,42.8742,-77.288,
260,Port Arthur,CN,70.02,few clouds,38.8,121.2667,
261,Develi,TR,81.75,clear sky,38.3906,35.4922,
265,Soubre,CI,81.05,overcast clouds,5.7856,-6.6083,
266,Ribeira Grande,PT,75.6,scattered clouds,38.5167,-28.7,
269,Ilhabela,BR,70.09,overcast clouds,-23.7781,-45.3581,
270,Posse,BR,89.26,scattered clouds,-14.0931,-46.3694,
271,Castries,LC,86.13,scattered clouds,13.9957,-61.0061,
273,Paoua,CF,71.71,overcast clouds,7.2427,16.4406,
274,Pangoa,PE,64.71,overcast clouds,-12.1167,-73.0,
276,Kesova Gora,RU,61.02,scattered clouds,57.5836,37.2922,
280,Saint-Remi,CA,74.73,overcast clouds,45.2668,-73.6159,
282,Altay,CN,72.43,overcast clouds,47.8667,88.1167,
284,Buin,CL,72.43,clear sky,-33.7333,-70.75,
285,Kez,RU,61.7,overcast clouds,57.8979,53.7152,
286,Vuktyl,RU,62.31,overcast clouds,63.8567,57.3094,
287,Sucua,EC,77.74,light rain,-2.4667,-78.1667,
288,Beroroha,MG,71.51,clear sky,-21.6667,45.1667,
289,Zapolyarnyy,RU,60.08,overcast clouds,69.4154,30.8136,
290,Saurimo,AO,76.87,few clouds,-9.6608,20.3916,
291,Inhambane,MZ,75.18,few clouds,-23.865,35.3833,
292,Ranong,TH,78.8,overcast clouds,9.9658,98.6348,
293,Dwarka,IN,83.48,overcast clouds,22.2394,68.9678,
294,Daru,PG,75.79,overcast clouds,-9.0763,143.2092,
299,Porosozero,RU,62.47,broken clouds,62.7191,32.727,
301,Dingle,PH,75.51,overcast clouds,10.9995,122.6711,
304,Guerrero Negro,MX,81.97,broken clouds,27.9769,-114.0611,
305,Dzilam Gonzalez,MX,89.94,few clouds,21.2833,-88.9333,
306,Margate,GB,79.9,scattered clouds,51.3813,1.3862,
308,Saint George,US,87.44,clear sky,37.1041,-113.5841,
310,Astana,KZ,64.35,scattered clouds,51.1801,71.446,
311,Kibala,TD,84.15,few clouds,9.1104,18.3463,
312,Mitsamiouli,KM,76.55,clear sky,-11.3847,43.2844,
314,Kyzyl-Suu,KG,60.84,clear sky,42.3414,78.0056,
315,Goderich,CA,70.92,clear sky,43.7501,-81.7165,
320,Sabang,ID,82.62,overcast clouds,5.8933,95.3214,
325,Zyryanovsk,KZ,66.74,overcast clouds,49.7386,84.2719,
326,Nakamura,JP,77.32,light rain,32.9833,132.9333,
327,Port Moresby,PG,76.42,few clouds,-9.4431,147.1797,
328,Saquarema,BR,73.44,light rain,-22.92,-42.5103,
330,Portland,US,67.6,overcast clouds,45.5234,-122.6762,
333,Yanam,IN,79.66,light rain,16.7333,82.2167,
334,Broome,US,75.47,overcast clouds,42.2506,-75.833,
336,Camacari,BR,78.57,clear sky,-12.6975,-38.3242,
337,Tezu,IN,79.47,scattered clouds,27.9167,96.1667,
338,Dongsheng,CN,67.35,clear sky,39.8161,109.9776,
341,Beidao,CN,74.8,overcast clouds,34.5686,105.8933,
343,Zmiyiv,UA,82.71,overcast clouds,49.6966,36.3611,
347,Thornbury,GB,89.06,clear sky,52.2333,-2.55,
348,Samana,DO,84.42,scattered clouds,19.2056,-69.3369,
350,Maarianhamina,AX,67.86,clear sky,60.0973,19.9348,
351,Trinidad,BO,71.58,clear sky,-14.8333,-64.9,
354,Kununurra,AU,64.38,clear sky,-15.7667,128.7333,
355,Barra Dos Coqueiros,BR,82.42,few clouds,-10.9089,-37.0386,
356,Kaoma,ZM,68.88,clear sky,-14.7833,24.8,
361,Nur,PL,67.75,scattered clouds,52.6683,22.3221,
362,Alice Springs,AU,60.35,overcast clouds,-23.7,133.8833,
363,Huejuquilla El Alto,MX,75.87,few clouds,22.6,-103.8667,
364,Ende,ID,75.79,overcast clouds,-8.8432,121.6623,
365,Atikokan,CA,72.09,clear sky,48.7555,-91.6216,
366,Dhidhdhoo,MV,81.36,few clouds,6.8833,73.1,
367,Luanda,AO,68.7,clear sky,-8.8368,13.2343,
370,Dinar,TR,69.76,light rain,38.065,30.1656,
371,Dolinsk,RU,61.5,clear sky,47.35,142.8,
373,Prieska,ZA,65.73,broken clouds,-29.6641,22.7474,
374,Lorengau,PG,79.88,overcast clouds,-2.0226,147.2712,
375,Karasuk,RU,65.82,overcast clouds,53.7377,78.0403,
377,Mahesana,IN,81.18,overcast clouds,23.6,72.4,
378,Shetpe,KZ,88.63,clear sky,44.1667,52.1167,
379,Sidrolandia,BR,61.05,clear sky,-20.9319,-54.9614,
380,Monroe,US,78.1,broken clouds,43.1501,-77.6831,
381,Tongren,CN,79.88,overcast clouds,27.7172,109.1853,
382,Hargeysa,SO,73.4,overcast clouds,9.56,44.065,
383,Chicama,PE,61.34,broken clouds,-7.8447,-79.1469,
387,Port-Gentil,GA,76.96,overcast clouds,-0.7193,8.7815,
389,Kamwenge,UG,75.81,overcast clouds,0.1866,30.4539,
391,Atambua,ID,70.16,broken clouds,-9.1061,124.8925,
392,Laredo,US,89.89,clear sky,27.5064,-99.5075,
393,Marystown,CA,62.85,overcast clouds,47.1666,-55.1483,
395,Sola,VU,79.21,moderate rain,-13.8833,167.55,
396,Kizner,RU,66.63,scattered clouds,56.2749,51.508,
397,San Felipe,VE,79.48,light rain,10.3399,-68.7425,
399,Caravelas,BR,79.16,clear sky,-17.7125,-39.2481,
400,Guia Lopes Da Laguna,BR,64.47,scattered clouds,-21.4578,-56.1142,
401,Huainan,CN,83.08,overcast clouds,32.6264,116.9969,
402,Touros,BR,83.08,clear sky,-5.1989,-35.4608,
405,Oranjestad,AW,87.75,few clouds,12.524,-70.027,
407,Lowicz,PL,68.61,scattered clouds,52.1071,19.9453,
408,Gavle,SE,78.39,overcast clouds,60.6745,17.1417,
411,Leshan,CN,77.52,overcast clouds,29.5623,103.7639,
412,Tyumentsevo,RU,65.5,overcast clouds,53.3224,81.498,
413,Labuhan,ID,77.94,scattered clouds,-6.8844,112.2051,
414,Orocue,CO,84.16,overcast clouds,4.7912,-71.3354,
415,Bintulu,MY,77.41,few clouds,3.1667,113.0333,
416,Pundaguitan,PH,82.38,few clouds,6.3711,126.1689,
418,Auki,SB,75.27,broken clouds,-8.7676,160.7034,
419,Mwense,ZM,73.02,broken clouds,-10.3845,28.698,
420,Kilimatinde,TZ,73.54,few clouds,-5.85,34.95,
422,Dedougou,BF,86.29,broken clouds,12.4667,-3.4667,
424,Taman,RU,80.29,scattered clouds,45.2117,36.7161,
426,Raudeberg,NO,61.95,overcast clouds,61.9875,5.1352,
427,Narasannapeta,IN,79.68,light rain,18.4167,84.05,
429,Iquitos,PE,82.44,broken clouds,-3.7481,-73.2472,
430,Belmonte,BR,78.12,clear sky,-15.8631,-38.8828,
431,Skibbereen,IE,73.11,clear sky,51.55,-9.2667,
432,Vanimo,PG,76.6,overcast clouds,-2.6741,141.3028,
433,Dakar,SN,88.68,broken clouds,14.6937,-17.4441,
434,Aden,YE,86.56,broken clouds,12.7794,45.0367,
435,Maragogi,BR,79.21,clear sky,-9.0122,-35.2225,
437,Wanning,CN,81.3,overcast clouds,18.8003,110.3967,
438,Haimen,CN,76.89,scattered clouds,23.1935,116.6142,
441,Northam,GB,81.66,clear sky,51.0333,-4.2167,
444,Pafos,CY,83.98,scattered clouds,34.7667,32.4167,
445,Poya,NC,62.53,scattered clouds,-21.35,165.15,
446,El Tigre,VE,86.58,broken clouds,8.8875,-64.2454,
449,Raga,SS,72.91,light rain,8.4596,25.678,
450,The Valley,AI,89.46,few clouds,18.217,-63.0578,
451,Luqiao,CN,79.16,overcast clouds,28.5808,121.3772,
452,Shubarkuduk,KZ,79.81,broken clouds,49.1447,56.4872,
453,Saint-Pierre,RE,67.91,clear sky,-21.3393,55.4781,
455,Casablanca,MA,82.62,clear sky,33.5928,-7.6192,
456,Nabire,ID,74.84,broken clouds,-3.3667,135.4833,
459,Marsaxlokk,MT,86.61,few clouds,35.8419,14.5431,
462,Quatre Cocos,MU,70.09,broken clouds,-20.2078,57.7625,
463,Tadine,NC,65.48,clear sky,-21.55,167.8833,
464,Gafanha Da Encarnacao,PT,73.02,few clouds,40.6181,-8.733,
465,Moerai,PF,71.31,few clouds,-22.4333,-151.3333,
466,Seabra,BR,87.19,clear sky,-12.4186,-41.7703,
467,Asau,RO,69.28,overcast clouds,46.4333,26.4,
468,Ilebo,CD,85.62,broken clouds,-4.3167,20.5833,
469,Gurkovo,BG,81.05,broken clouds,42.6667,25.8,
470,Mundo Nuevo,MX,84.04,broken clouds,18.7,-95.5,
471,Bad Worishofen,DE,76.6,clear sky,48.0167,10.6,
473,Jieshou,CN,81.21,overcast clouds,33.2634,115.3611,
474,Sinnamary,GF,84.02,overcast clouds,5.3833,-52.95,
475,Zhangjiakou,CN,67.37,clear sky,40.81,114.8794,
478,Lagoa,PT,70.93,broken clouds,39.05,-27.9833,
479,Cairns,AU,67.95,overcast clouds,-16.9167,145.7667,
480,Omboue,GA,74.23,overcast clouds,-1.5746,9.2618,
481,Pangai,TO,78.19,few clouds,-19.8,-174.35,
482,Avanigadda,IN,85.08,overcast clouds,16.0215,80.9181,
483,Itarema,BR,84.6,clear sky,-2.9248,-39.9167,
484,Veraval,IN,80.56,overcast clouds,20.9,70.3667,
486,Eruwa,NG,79.52,overcast clouds,7.5333,3.4167,
487,Zunyi,CN,74.21,overcast clouds,27.6867,106.9072,
491,Almaznyy,RU,82.71,clear sky,48.0448,40.045,
492,Mountain Home,US,72.88,scattered clouds,43.133,-115.6912,
493,Guarapari,BR,83.89,broken clouds,-20.6667,-40.4975,
496,Vila Franca Do Campo,PT,75.61,scattered clouds,37.7167,-25.4333,
497,Camocim,BR,89.82,clear sky,-2.9022,-40.8411,
498,Souillac,MU,70.18,broken clouds,-20.5167,57.5167,
499,Sept-Iles,CA,65.05,clear sky,50.2001,-66.3821,
500,Bati,ET,69.91,light rain,11.1833,40.0167,
501,Hobyo,SO,76.84,broken clouds,5.3505,48.5268,
502,Bourail,NC,61.97,scattered clouds,-21.5667,165.4833,
503,Samarina,RU,69.69,broken clouds,57.8878,27.8054,
504,Dharchula,IN,74.5,overcast clouds,29.85,80.5333,
505,Asosa,ET,61.38,light rain,10.0667,34.5333,
507,Uttaradit,TH,71.37,overcast clouds,17.6667,100.5,
509,Sobolevo,RU,62.1,few clouds,54.4299,31.8996,
512,Todos Santos,MX,83.66,overcast clouds,23.45,-110.2167,
513,Leh,IN,72.28,few clouds,34.1667,77.5833,
514,Urumqi,CN,72.55,clear sky,43.801,87.6005,
515,Agirish,RU,67.93,overcast clouds,61.9247,63.0231,
517,Cranbrook,CA,71.96,overcast clouds,49.4999,-115.7688,
518,Shemgang,BT,61.81,overcast clouds,27.2169,90.6579,
519,Lata,PT,81.52,clear sky,40.1629,-8.3327,
520,Anaconda,US,74.39,overcast clouds,46.1285,-112.9423,
521,Choya,RU,65.71,scattered clouds,52.0108,86.5467,
526,Ostrovnoy,RU,60.01,overcast clouds,68.0531,39.5131,
527,Vlasim,CZ,78.42,overcast clouds,49.7063,14.8988,
529,Montepuez,MZ,73.76,overcast clouds,-13.1256,38.9997,
530,Masumbwe,TZ,76.84,scattered clouds,-3.6333,32.1833,
531,Huimilpan,MX,63.5,scattered clouds,20.372,-100.2774,
532,Algeciras,ES,78.48,few clouds,36.1333,-5.4505,
534,Nanchang,CN,85.28,broken clouds,28.6833,115.8833,
535,Moose Factory,CA,65.57,broken clouds,51.2585,-80.6094,
537,Choix,MX,85.91,overcast clouds,26.7092,-108.3219,
538,George Town,MY,82.89,few clouds,5.4112,100.3354,
539,Zabid,YE,88.83,overcast clouds,14.1951,43.3152,
541,Kindu,CD,83.64,overcast clouds,-2.95,25.95,
542,Lazaro Cardenas,MX,87.17,overcast clouds,17.9583,-102.2,
543,Bubaque,GW,81.61,broken clouds,11.2833,-15.8333,
545,Chalan,CO,84.94,overcast clouds,9.5477,-75.3113,
546,Mehamn,NO,62.55,light rain,71.0357,27.8492,
547,Kelvington,CA,63.97,broken clouds,52.1667,-103.5343,
548,Odesskoye,RU,66.58,broken clouds,54.2111,72.9651,
549,Itoman,JP,84.22,haze,26.1247,127.6694,
550,Palizada,MX,89.55,overcast clouds,18.25,-92.0833,
551,Makaryev,RU,60.66,overcast clouds,57.8797,43.8069,
552,Olinda,BR,82.13,few clouds,-8.0089,-34.8553,
553,Atkinson,US,77.47,overcast clouds,42.8384,-71.147,
554,Sao Joao Da Barra,BR,84.29,broken clouds,-21.6403,-41.0511,
555,Jovellanos,CU,86.34,overcast clouds,22.8044,-81.1944,
557,Roebourne,AU,65.73,clear sky,-20.7833,117.1333,
558,Goianesia,BR,88.11,overcast clouds,-15.3175,-49.1175,
560,Meulaboh,ID,77.23,few clouds,4.1363,96.1285,
561,Bengkulu,ID,75.78,scattered clouds,-3.8004,102.2655,
562,Kushiro,JP,67.17,broken clouds,42.975,144.3747,
563,Berlevag,NO,62.6,light rain,70.8578,29.0864,
564,Shimoda,JP,78.1,overcast clouds,34.6667,138.95,
565,Eureka,US,68.25,clear sky,40.8021,-124.1637,
566,Tooele,US,83.08,clear sky,40.5308,-112.2983,
567,Ugoofaaru,MV,81.57,broken clouds,5.6667,73.0,
570,Sibolga,ID,76.1,scattered clouds,1.7427,98.7792,
571,Shingu,JP,77.92,overcast clouds,33.7333,135.9833,
572,Surman,LY,84.85,clear sky,32.7567,12.5716,
573,Hervey Bay,AU,62.42,clear sky,-25.2986,152.8535,
574,Plouzane,FR,84.25,clear sky,48.3833,-4.6167,
575,Seoul,KR,74.77,overcast clouds,37.5683,126.9778,
576,Jatiroto,ID,72.88,broken clouds,-7.8833,111.1167,
578,Cabedelo,BR,86.67,few clouds,-6.9811,-34.8339,
579,Sulphur,US,89.96,broken clouds,30.2366,-93.3774,
581,Maamba,ZM,67.89,clear sky,-17.3667,27.15,
583,Wagar,SD,84.51,overcast clouds,16.1525,36.2032,
584,Padilla,CO,84.88,overcast clouds,3.2204,-76.3139,
585,Sapa,PH,81.25,overcast clouds,5.1544,120.3241,
586,Palmer,US,84.06,broken clouds,42.1584,-72.3287,
587,Monrovia,LR,76.48,light rain,6.3005,-10.7969,
588,Yumen,CN,81.48,clear sky,40.2833,97.2,
590,Hoquiam,US,62.58,overcast clouds,46.9809,-123.8893,
591,Ballymena,GB,80.04,scattered clouds,54.8636,-6.2763,
592,Chongoyape,PE,82.51,broken clouds,-6.6406,-79.3892,
594,Kamaishi,JP,75.4,overcast clouds,39.2667,141.8833,
595,Kerema,PG,77.41,overcast clouds,-7.9631,145.7785,
596,Tautira,PF,76.46,light rain,-17.7333,-149.15,
597,Vao,NC,67.87,clear sky,-22.6667,167.4833,
598,Cienfuegos,CU,86.14,broken clouds,22.1461,-80.4356,
599,Bridlington,GB,78.73,few clouds,54.0831,-0.1919,
600,Firminopolis,BR,78.06,overcast clouds,-16.5819,-50.305,
601,Yarmouth,US,75.25,overcast clouds,41.7057,-70.2286,
602,Leshukonskoye,RU,60.19,few clouds,64.8989,45.7622,
605,Ubinskoye,RU,67.24,overcast clouds,55.3068,79.6802,
607,Katherine,AU,73.72,clear sky,-14.4667,132.2667,
608,Vavatenina,MG,61.56,scattered clouds,-17.4667,49.2,
610,Matara,LK,75.92,scattered clouds,5.9485,80.5353,
611,Cap-Aux-Meules,CA,64.13,overcast clouds,47.3821,-61.8597,
612,Banyo,CM,67.78,light rain,6.75,11.8167,
613,Beausejour,CA,70.86,clear sky,50.0622,-96.5167,
614,Madang,PG,76.48,overcast clouds,-5.2246,145.7966,
616,Bonthe,SL,78.33,light rain,7.5264,-12.505,
617,Vangaindrano,MG,66.07,broken clouds,-23.35,47.6,
618,Thunder Bay,CA,73.0,clear sky,48.4001,-89.3168,
620,Finschhafen,PG,76.42,overcast clouds,-6.6024,147.8681,
623,Dong Hoi,VN,79.79,light rain,17.4833,106.6,
624,Maxhutte-Haidhof,DE,79.36,scattered clouds,49.2025,12.0981,
625,Jackson,US,70.05,clear sky,42.4165,-122.8345,
626,Ust-Nera,RU,62.19,light rain,64.5667,143.2,
628,Pampa,US,86.14,clear sky,35.5362,-100.9599,
629,Kasama,ZM,66.49,clear sky,-10.2129,31.1808,
630,Bull Savanna,JM,85.95,broken clouds,17.8868,-77.5902,
631,Waingapu,ID,75.58,overcast clouds,-9.6567,120.2641,
632,Shenzhen,CN,82.22,overcast clouds,22.5455,114.0683,
633,Vadinsk,RU,68.68,broken clouds,53.6916,43.0574,
634,Tual,ID,79.57,scattered clouds,-5.6667,132.75,
637,Tripoli,LY,84.04,clear sky,32.8752,13.1875,
638,Luena,AO,69.49,clear sky,-11.7833,19.9167,
641,Harper,LR,76.3,overcast clouds,4.375,-7.7169,
642,Samarai,PG,77.94,overcast clouds,-10.6167,150.6667,
643,Tuskegee,US,84.13,overcast clouds,32.424,-85.6916,
645,Biak,ID,75.29,overcast clouds,-0.9131,122.8766,
646,Miles City,US,77.97,clear sky,46.4083,-105.8406,
647,Tampere,FI,71.17,clear sky,61.4991,23.7871,
648,Cartagena Del Chaira,CO,78.35,overcast clouds,1.3349,-74.8429,
649,Angadanan,PH,73.85,overcast clouds,16.7553,121.7483,
650,Boissevain,CA,70.3,broken clouds,49.2306,-100.0559,
651,Caapucu,PY,62.42,broken clouds,-26.2167,-57.2,
652,San Cristobal,VE,80.78,overcast clouds,7.7669,-72.225,
654,Valmiera,LV,64.72,broken clouds,57.5411,25.4275,
655,Xuddur,SO,76.96,overcast clouds,4.1213,43.8894,
656,Banda Aceh,ID,79.07,broken clouds,5.5577,95.3222,
657,Fomboni,KM,76.03,clear sky,-12.28,43.7425,
659,Mayor Pablo Lagerenza,PY,72.05,clear sky,-19.9309,-60.7718,
661,Acapulco,MX,80.42,overcast clouds,16.8634,-99.8901,
662,Padang,ID,77.79,broken clouds,-0.9492,100.3543,
663,Kanungu,UG,68.32,overcast clouds,-0.9575,29.7897,
664,Antalaha,MG,70.77,scattered clouds,-14.9003,50.2788,
667,Yining,CN,80.74,overcast clouds,29.0361,114.5636,
669,Mulanje,MW,68.63,clear sky,-16.0316,35.5,
670,Muros,ES,77.16,broken clouds,42.7762,-9.0603,
672,Limbazi,LV,62.8,overcast clouds,57.5129,24.7194,
673,Golden,US,87.15,few clouds,39.7555,-105.2211,
674,Antigonish,CA,69.82,broken clouds,45.6169,-61.9986,
675,Morristown,US,86.38,overcast clouds,36.214,-83.2949,
676,Gwadar,PK,83.95,overcast clouds,25.1216,62.3254,
677,Sarkand,KZ,69.17,clear sky,45.41,79.9186,
678,Port-Cartier,CA,64.74,clear sky,50.0334,-66.8654,
679,Bida,NG,80.85,light rain,9.0833,6.0167,
681,Huarmey,PE,67.82,scattered clouds,-10.0681,-78.1522,
682,Halden,NO,70.23,scattered clouds,59.1226,11.3871,
683,San Policarpo,PH,77.68,broken clouds,12.1791,125.5072,
685,Cap Malheureux,MU,70.47,scattered clouds,-19.9842,57.6142,
